     2              OBSERVATION DATA    G (GPS)             RINEX VERSION / TYPE
RGRINEXN V2.1.0 VM  EMR                 15-OCT-95 22:00     PGM / RUN BY / DATE 
BIT 2 OF LLI (+4) FLAGS DATA COLLECTED UNDER "AS" CONDITION COMMENT             
       .000000000000          HARDWARE CALIBRATION (S)      COMMENT             
STATION INFORMATION UPDATED  1995 10  7                     COMMENT             
ANT HGT  .110 M BELOW L1 AND  .128 M BELOW L2 PHASE CENTRE  COMMENT             
algo CACS-ACP 883160 ALGONQUIN PARK, ONTARIO, CANADA        MARKER NAME         
AUTO-DOWNLOAD       NATURAL RESOURCES CA                    OBSERVER / AGENCY   
226                 ROGUE SNR-8000      TURBO 3.2.32.1      REC # / TYPE / VERS 
173                 DORNE MARGOLIN T                        ANT # / TYPE        
   918129.6000 -4346071.2000  4561977.8000                  APPROX POSITION XYZ 
         .1000         .0000         .0000                  ANTENNA: DELTA H/E/N
     1     1                                                WAVELENGTH FACT L1/2
     5    P1    L1    L2    P2    C1                        # / TYPES OF OBSERV 
    30                                                      INTERVAL            
  1995    10    15     0     0     .000000                  TIME OF FIRST OBS   
                                                            END OF HEADER       
 95 10 15  0  0   .0000000  0  6  6 14  1 20 22 25
  24379186.535    -2562953.540 6  -1997104.982 7  24379186.698                  
  22107454.496   -13623432.274 7 -10615655.872 8  22107454.102                  
  22098172.730   -12460674.976 7  -9709603.796 9  22098172.430                  
  22689845.973   -10415120.697 6  -8115667.391 8  22689845.464                  
  22432800.573   -10203952.170 6  -7951126.286 8  22432799.812                  
  20300766.115   -23765460.783 8 -18518527.289 9  20300764.325                  
 95 10 15  0  0 30.0000000  0  6  6 14  1 20 22 25
  24367467.367    -2624539.358 6  -2045093.913 7  24367467.497                  
  22098040.421   -13672904.371 7 -10654205.539 8  22098039.869                  
  22112927.713   -12383136.270 7  -9649184.044 9  22112927.640                  
  22705357.121   -10333609.416 6  -8052152.121 8  22705356.425                  
  22412964.460   -10308191.056 6  -8032351.364 8  22412963.936                  
  20302328.215   -23757252.061 8 -18512130.882 9  20302326.300                  
 95 10 15  0  1   .0000000  0  6  6 14  1 20 22 25
  24355811.548    -2685791.355 6  -2092822.738 7  24355811.316                  
  22088730.417   -13721829.772 7 -10692329.210 8  22088729.566                  
  22127734.159   -12305327.769 7  -9588554.054 9  22127733.873                  
  22720943.228   -10251704.241 6  -7988329.910 8  22720942.502                  
  22393180.412   -10412155.924 6  -8113362.919 8  22393179.919                  
  20303959.197   -23748681.433 8 -18505452.470 9  20303957.257                  
 95 10 15  0  1 30.0000000  0  6  6 14  1 20 22 25
  24344217.177    -2746719.825 6  -2140299.443 7  24344216.918                  
  22079524.738   -13770205.492 7 -10730024.563 8  22079524.219                  
  22142592.077   -12227249.068 7  -9527713.524 9  22142591.787                  
  22736604.289   -10169404.318 6  -7924200.103 8  22736603.647                  
  22373450.305   -10515838.911 6  -8194154.842 8  22373449.493                  
  20305660.853   -23739739.449 8 -18498484.688 9  20305658.896                  
 95 10 15  0  2   .0000000  0  6  6 14  1 20 22 25
  24332683.887    -2807329.739 6  -2187527.929 6  24332682.438                  
  22070424.441   -13818026.043 7 -10767287.321 9  22070424.494                  
  22157501.792   -12148899.369 7  -9466661.827 9  22157501.255                  
  22752341.300   -10086705.871 6  -7859759.759 8  22752340.663                  
  22353773.892   -10619239.600 7  -8274726.783 8  22353773.350                  
  20307431.227   -23730435.807 8 -18491235.096 9  20307429.375                  
 95 10 15  0  2 30.0000000  0  6  6 14  1 20 22 25
  24321211.935    -2867613.281 6  -2234502.092 6  24321211.366                  
  22061430.928   -13865288.331 7 -10804115.069 9  22061430.886                  
  22172463.813   -12070274.271 7  -9405395.539 9  22172463.219                  
  22768157.680   -10003590.369 6  -7794994.443 8  22768157.045                  
  22334152.494   -10722350.677 7  -8355073.053 8  22334151.837                  
  20309266.841   -23720788.986 8 -18483718.092 9  20309265.144                  
 95 10 15  0  3   .0000000  0  7  6 14 29  1 20 22 25
  24309806.285    -2927552.908 6  -2281208.247 7  24309805.630                  
  22052545.232   -13911984.220 7 -10840501.461 9  22052544.885                  
  24816294.521           -.90015         -.97616  24816294.608                  
  22187476.624   -11991380.613 7  -9343919.975 8  22187476.120                  
  22784053.769    -9920056.356 6  -7729903.019 8  22784052.851                  
  22314587.522   -10825163.823 6  -8435187.164 8  22314587.137                  
  20311170.977   -23710782.820 8 -18475921.077 9  20311169.229                  
 95 10 15  0  3 30.0000000  0  7  6 14 29  1 20 22 25
  24298465.225    -2987149.555 6  -2327647.153 7  24298464.891                  
  22043766.622   -13958116.424 7 -10876448.621 9  22043765.999                  
  24797504.400      -98744.012 5    -76943.650 6  24797504.280                  
  22202540.538   -11912219.143 7  -9282235.728 8  22202539.794                  
  22800028.241    -9836108.955 6  -7664489.456 8  22800027.566                  
  22295080.454   -10927674.319 6  -8515065.442 8  22295079.825                  
  20313142.688   -23700421.374 8 -18467847.220 9  20313140.804                  
 95 10 15  0  4   .0000000  0  7  6 14 29  1 20 22 25
  24287193.828    -3046380.060 6  -2373800.771 7  24287193.527                  
  22035096.153   -14003680.126 7 -10911952.792 9  22035095.419                  
  24778712.332     -197493.957 5   -153891.641 6  24778712.638                  
  22217653.914   -11832797.265 7  -9220348.566 8  22217653.713                  
  22816081.054    -9751752.039 6  -7598756.809 8  22816079.917                  
  22275631.265   -11029880.429 6  -8594706.539 8  22275630.868                  
  20315179.908   -23689715.428 8 -18459504.923 9  20315178.015                  
 95 10 15  0  4 30.0000000  0  7  6 14 29  1 20 22 25
  24275993.669    -3105237.353 6  -2419663.600 7  24275993.269                  
  22026532.311   -14048681.084 7 -10947018.455 9  22026531.835                  
  24759925.476     -296225.335 5   -230825.218 6  24759924.593                  
  22232816.372   -11753119.687 7  -9158262.157 9  22232815.805                  
  22832206.650    -9667010.355 6  -7532724.328 8  22832206.340                  
  22256241.297   -11131775.256 7  -8674105.080 8  22256240.847                  
  20317282.826   -23678663.840 8 -18450893.294 9  20317281.073                  
 95 10 15  0  5   .0000000  0  7  6 14 29  1 20 22 25
  24264863.544    -3163726.992 6  -2465239.918 7  24264862.921                  
  22018074.748   -14093125.064 7 -10981650.105 9  22018074.512                  
  24741142.800     -394927.954 5   -307736.368 6  24741141.825                  
  22248025.171   -11673196.818 7  -9095984.618 9  22248024.921                  
  22848398.767    -9581918.969 6  -7466419.359 7  22848398.463                  
  22236909.829   -11233362.089 7  -8753263.634 8  22236909.641                  
  20319453.056   -23667259.610 8 -18442006.879 9  20319451.232                  
 95 10 15  0  5 30.0000000  0  7  6 14 29  1 20 22 25
  24253802.683    -3221852.718 6  -2510532.663 7  24253802.343                  
  22009721.234   -14137023.182 7 -11015856.416 9  22009721.155                  
  24722367.334     -493593.832 5   -384618.857 6  24722366.252                  
  22263278.314   -11593040.695 7  -9033525.326 9  22263278.142                  
  22864655.568    -9496488.369 6  -7399850.081 8  22864655.629                  
  22217636.790   -11334642.409 7  -8832183.335 8  22217636.616                  
  20321686.620   -23655522.521 8 -18432861.093 9  20321684.803                  
 95 10 15  0  6   .0000000  0  7  6 14 29  1 20 22 25
  24242813.091    -3279603.546 6  -2555533.284 7  24242812.293                  
  22001471.174   -14180377.864 7 -11049639.277 9  22001471.073                  
  24703596.601     -592233.735 6   -461481.087 6  24703596.142                  
  22278575.639   -11512652.254 7  -8970885.002 8  22278575.320                  
  22880978.373    -9410710.594 6  -7333010.265 8  22880978.565                  
  22198424.806   -11435602.648 7  -8910853.626 8  22198424.450                  
  20323984.383   -23643447.803 8 -18423452.218 9  20323982.578                  
 95 10 15  0  6 30.0000000  0  7  6 14 29  1 20 22 25
  24231891.991    -3336993.671 6  -2600252.816 7  24231891.156                  
  21993323.695   -14223194.348 7 -11083002.758 9  21993323.292                  
  24684828.216     -690863.472 6   -538335.390 6  24684827.447                  
  22293919.204   -11432021.974 7  -8908056.232 8  22293918.762                  
  22897367.601    -9324586.476 6  -7265900.567 7  22897367.546                  
  22179273.138   -11536245.434 7  -8989276.554 8  22179272.774                  
  20326348.538   -23631024.062 8 -18413771.381 9  20326346.742                  
 95 10 15  0  7   .0000000  0  7  6 14 29  1 20 22 25
  24221040.447    -3394018.387 6  -2644687.612 7  24221039.897                  
  21985281.980   -14265454.970 7 -11115933.097 9  21985281.247                  
  24666059.198     -789496.681 6   -615192.395 6  24666057.479                  
  22309310.661   -11351139.467 7  -8845030.919 8  22309310.124                  
  22913824.711    -9238101.584 6  -7198509.750 7  22913824.977                  
  22160180.299   -11636578.386 7  -9067458.051 8  22160179.992                  
  20328780.911   -23618242.355 8 -18403811.605 9  20328778.937                  
 95 10 15  0  7 30.0000000  0  7  6 14 29  1 20 22 25
  24210260.106    -3450669.098 6  -2688830.981 7  24210259.987                  
  21977348.527   -14307144.638 7 -11148418.538 9  21977347.933                  
  24647289.366     -888132.771 6   -692051.645 6  24647287.453                  
  22324752.915   -11269989.630 7  -8781797.288 8  22324752.449                  
  22930353.489    -9151242.429 6  -7130827.298 7  22930353.372                  
  22141147.869   -11736593.637 7  -9145391.990 8  22141147.716                  
  20331281.338   -23605103.013 8 -18393573.153 9  20331279.333                  
 95 10 15  0  8   .0000000  0  7  6 14 29  1 20 22 25
  24199551.209    -3506943.820 6  -2732681.393 7  24199550.929                  
  21969526.036   -14348252.127 7 -11180450.336 9  21969525.511                  
  24628521.058     -986760.269 5   -768904.191 6  24628519.915                  
  22340249.542   -11188554.395 7  -8718341.276 8  22340248.983                  
  22946952.035    -9064016.631 6  -7062859.157 7  22946952.192                  
  22122175.003   -11836296.413 7  -9223082.435 9  22122174.949                  
  20333850.913   -23591599.430 8 -18383050.876 9  20333849.074                  
 95 10 15  0  8 30.0000000  0  7  6 14 29  1 20 22 25
  24188912.736    -3562850.331 6  -2776244.894 7  24188912.381                  
  21961814.232   -14388777.501 7 -11212028.535 9  21961813.826                  
  24609757.486    -1085361.638 5   -845736.383 6  24609756.567                  
  22355799.737   -11106837.972 6  -8654666.156 8  22355799.138                  
  22963617.063    -8976443.457 6  -6994620.334 8  22963617.041                  
  22103259.344   -11935699.273 7  -9300539.182 9  22103259.015                  
  20336487.953   -23577741.073 8 -18372252.156 9  20336486.240                  
 95 10 15  0  9   .0000000  0  7  6 14 29  1 20 22 25
  24178343.263    -3618393.808 6  -2819525.486 7  24178342.628                  
  21954215.387   -14428710.000 7 -11243144.756 9  21954214.699                  
  24591001.741    -1183924.450 5   -922538.496 6  24591000.255                  
  22371402.230   -11024844.907 6  -8590775.480 8  22371401.914                  
  22980346.642    -8888528.582 6  -6926115.257 8  22980346.700                  
  22084402.325   -12034794.058 7  -9377755.869 9  22084401.811                  
  20339191.060   -23563535.637 8 -18361182.984 9  20339189.405                  
 95 10 15  0  9 30.0000000  0  7  6 14 29  1 20 22 25
  24167842.648    -3673574.083 6  -2862523.075 7  24167841.805                  
  21946725.560   -14468068.823 7 -11273813.959 9  21946724.864                  
  24572255.851    -1282432.728 5   -999298.114 6  24572254.523                  
  22387055.153   -10942589.295 6  -8526680.219 8  22387054.640                  
  22997140.824    -8800275.455 6  -6857346.599 7  22997140.431                  
  22065606.373   -12133568.620 7  -9454723.033 9  22065605.574                  
  20341958.201   -23548994.262 8 -18349852.039 9  20341956.494                  
 95 10 15  0 10   .0000000  0  7  6 14 29  1 20 22 25
  24157410.652    -3728393.371 6  -2905239.386 7  24157410.255                  
  21939342.719   -14506865.855 7 -11304045.399 9  21939342.037                  
  24553520.269    -1380889.502 6  -1076017.624 6  24553519.251                  
  22402754.999   -10860085.360 6  -8462391.452 8  22402754.929                  
  23013999.605    -8711682.580 6  -6788313.193 7  23013999.289                  
  22046872.857   -12232014.097 7  -9531433.770 9  22046872.195                  
  20344789.021   -23534118.219 8 -18338260.313 9  20344787.230                  
 95 10 15  0 10 30.0000000  0  7  6 14 29  1 20 22 25
  24147047.496    -3782851.408 6  -2947674.201 7  24147046.839                  
  21932066.723   -14545101.946 7 -11333839.747 9  21932065.999                  
  24534790.556    -1479312.496 6  -1152710.805 6  24534789.919                  
  22418499.991   -10777344.970 6  -8397918.439 8  22418499.837                  
  23030923.447    -8622747.196 6  -6719012.900 7  23030923.486                  
  22028203.648   -12330121.273 7  -9607880.886 9  22028202.893                  
  20347682.693   -23518911.631 8 -18326411.022 9  20347680.973                  
 95 10 15  0 11   .0000000  0  7  6 14 29  1 20 22 25
  24136757.410    -3836926.586 6  -2989810.673 7  24136757.041                  
  21924898.300   -14582773.565 7 -11363194.248 9  21924897.530                  
  24516065.715    -1577709.987 6  -1229384.140 6  24516065.414                  
  22434289.660   -10694368.875 6  -8333261.759 8  22434289.519                  
  23047913.879    -8533461.180 6  -6649439.394 7  23047913.827                  
  22009600.595   -12427879.453 7  -9684056.070 9  22009600.053                  
  20350640.609   -23503368.141 8 -18314299.208 9  20350638.867                  
 95 10 15  0 11 30.0000000  0  7  6 14 29  1 20 22 25
  24126544.938    -3890591.931 6  -3031627.794 7  24126544.753                  
  21917835.824   -14619886.280 7 -11392113.237 9  21917835.034                  
  24497346.854    -1676078.742 6  -1306035.086 6  24497346.962                  
  22450124.290   -10611158.350 6  -8268422.411 8  22450124.007                  
  23064971.712    -8443821.944 6  -6579590.646 7  23064971.496                  
  21991065.628   -12525280.859 7  -9759953.252 9  21991065.207                  
  20353660.077   -23487500.636 8 -18301934.917 9  20353658.263                  
 95 10 15  0 12   .0000000  0  7  6 14 29  1 20 22 25
  24116410.271    -3943850.781 6  -3073128.171 7  24116409.888                  
  21910883.905   -14656417.872 7 -11420579.400 9  21910883.294                  
  24478631.800    -1774427.404 6  -1382670.337 7  24478631.797                  
  22466003.624   -10527713.439 6  -8203400.436 8  22466003.242                  
  23082095.652    -8353833.388 6  -6509469.690 7  23082095.533                  
  21972596.556   -12622337.010 7  -9835581.403 9  21972596.257                  
  20356741.688   -23471305.659 8 -18289315.449 9  20356740.019                  
 95 10 15  0 12 30.0000000  0  7  6 14 29  1 20 22 25
  24106353.192    -3996699.319 6  -3114308.836 7  24106352.772                  
  21904043.801   -14692361.568 7 -11448587.467 9  21904043.317                  
  24459923.149    -1872742.067 6  -1459279.116 7  24459922.991                  
  22481927.152   -10444036.351 6  -8138197.526 8  22481926.089                  
  23099284.108    -8263507.509 6  -6439085.885 7  23099284.112                  
  21954190.358   -12719062.540 7  -9910951.920 9  21954189.771                  
  20359885.745   -23454784.117 8 -18276441.515 9  20359884.038                  
 95 10 15  0 13   .0000000  0  7  6 14 29  1 20 22 25
  24096376.677    -4049128.961 6  -3155163.093 7  24096375.940                  
  21897315.693   -14727719.473 7 -11476139.074 9  21897314.943                  
  24441225.171    -1971000.780 6  -1535844.283 6  24441224.737                  
  22497894.583   -10360125.643 6  -8072812.577 8  22497893.858                  
  23116537.424    -8172841.801 6  -6368437.291 7  23116536.991                  
  21935848.177   -12815451.620 7  -9986060.265 9  21935847.598                  
  20363093.010   -23437929.989 8 -18263308.423 9  20363091.275                  
 95 10 15  0 13 30.0000000  0  7  6 14 29  1 20 22 25
  24086477.396    -4101149.799 6  -3195698.773 7  24086476.707                  
  21890698.509   -14762493.138 7 -11503235.428 9  21890697.880                  
  24422537.252    -2069207.335 6  -1612368.836 6  24422536.494                  
  22513907.088   -10275978.153 6  -8007243.125 8  22513906.192                  
  23133853.618    -8081845.254 6  -6297530.893 7  23133853.447                  
  21917568.585   -12911512.626 7 -10060912.972 9  21917567.713                  
  20366363.774   -23420742.099 8 -18249915.259 9  20366362.119                  
 95 10 15  0 14   .0000000  0  7  6 14 29  1 20 22 25
  24076653.664    -4152772.740 6  -3235924.437 7  24076652.993                  
  21884190.448   -14796693.334 7 -11529884.923 9  21884190.004                  
  24403857.021    -2167372.076 6  -1688860.779 7  24403856.556                  
  22529965.654   -10191589.879 6  -7941486.047 8  22529965.045                  
  23151230.704    -7990528.435 6  -6226374.927 7  23151229.832                  
  21899350.790   -13007247.839 7 -10135511.817 9  21899349.826                  
  20369702.350   -23403197.311 8 -18236243.991 9  20369700.722                  
 95 10 15  0 14 30.0000000  0  7  6 14 29  1 20 22 25
  24066908.399    -4203983.251 6  -3275828.705 7  24066907.539                  
  21877790.035   -14830326.852 7 -11556092.847 9  21877789.744                  
  24385184.501    -2265497.892 6  -1765322.405 7  24385183.533                  
  22546071.657   -10106952.951 6  -7875535.220 8  22546071.224                  
  23168667.001    -7898900.939 6  -6154976.862 7  23168666.128                  
  21881196.874   -13102645.390 7 -10209847.559 9  21881196.135                  
  20373110.980   -23385284.500 8 -18222285.952 9  20373109.317                  
 95 10 15  0 15   .0000000  0  7  6 14 29  1 20 22 25
  24057241.951    -4254782.254 6  -3315412.315 7  24057241.087                  
  21871499.824   -14863381.137 7 -11581849.413 9  21871499.777                  
  24366513.839    -2363613.792 6  -1841776.306 7  24366512.690                  
  22562227.372   -10022055.284 6  -7809381.215 8  22562226.890                  
  23186162.286    -7806961.044 6  -6083335.384 7  23186161.820                  
  21863108.952   -13197698.426 7 -10283914.831 9  21863108.149                  
  20376590.075   -23367002.436 8 -18208040.182 9  20376588.413                  
 95 10 15  0 15 30.0000000  0  7  6 14 29  1 20 22 25
  24047651.249    -4305181.315 6  -3354684.268 7  24047651.022                  
  21865323.002   -14895841.312 7 -11607143.046 9  21865322.523                  
  24347841.951    -2461732.401 6  -1918232.282 7  24347841.373                  
  22578432.156    -9936898.040 6  -7743024.942 8  22578431.676                  
  23203715.751    -7714716.896 6  -6011456.827 7  23203715.149                  
  21845087.739   -13292400.811 7 -10357708.874 9  21845086.692                  
  20380140.442   -23348346.242 8 -18193502.886 9  20380138.581                  
 95 10 15  0 16   .0000000  0  7  6 14 29  1 20 22 25
  24038135.649    -4355185.799 6  -3393648.762 7  24038135.479                  
  21859262.997   -14927686.401 7 -11631957.398 9  21859262.433                  
  24329172.426    -2559844.803 6  -1994683.454 7  24329171.373                  
  22594684.502    -9851490.717 6  -7676473.802 8  22594684.377                  
  23221327.157    -7622168.085 6  -5939340.873 7  23221326.855                  
  21827135.225   -13386741.649 7 -10431221.195 9  21827134.423                  
  20383760.366   -23329323.293 8 -18178679.808 9  20383758.392                  
 95 10 15  0 16 30.0000000  0  7  6 14 29  1 20 22 25
  24028695.695    -4404795.691 6  -3432305.781 7  24028694.949                  
  21853325.748   -14958886.747 7 -11656269.347 9  21853325.294                  
  24310505.849    -2657936.904 6  -2071118.796 7  24310505.236                  
  22610982.218    -9765845.711 6  -7609737.461 8  22610981.947                  
  23238996.077    -7529316.616 6  -5866989.092 7  23238995.884                  
  21809251.784   -13480719.379 7 -10504450.569 9  21809250.982                  
  20387446.914   -23309949.646 8 -18163583.457 9  20387445.135                  
 95 10 15  0 17   .0000000  0  7  6 14 29  1 20 22 25
  24019330.232    -4454012.331 6  -3470656.369 7  24019329.161                  
  21847510.038   -14989448.446 7 -11680083.648 9  21847509.547                  
  24291845.709    -2755992.870 6  -2147525.976 7  24291846.060                  
  22627324.357    -9679967.084 6  -7542819.068 8  22627324.231                  
  23256723.084    -7436161.745 6  -5794400.885 7  23256722.806                  
  21791439.549   -13574322.540 7 -10577388.076 9  21791439.147                  
  20391197.315   -23290240.945 8 -18148226.022 9  20391195.586                  
 95 10 15  0 17 30.0000000  0  7  6 14 29  1 20 22 25
  24010042.268    -4502817.311 6  -3508686.206 7  24010041.784                  
  21841813.256   -15019386.898 7 -11703412.298 9  21841812.509                  
  24273198.999    -2853980.901 6  -2223880.222 7  24273199.284                  
  22643706.653    -9593877.897 6  -7475736.612 8  22643706.340                  
  23274506.042    -7342710.726 6  -5721581.920 7  23274505.491                  
  21773700.699   -13667539.941 7 -10650024.990 9  21773700.384                  
  20395009.192   -23270209.729 8 -18132617.278 9  20395007.423                  
 95 10 15  0 18   .0000000  0  7  6 14 29  1 20 22 25
  24000837.074    -4551191.561 6  -3546380.421 7  24000836.225                  
  21836232.422   -15048714.336 7 -11726264.841 9  21836231.675                  
  24254565.666    -2951898.532 6  -2300179.614 6  24254565.790                  
  22660128.293    -9507580.924 6  -7408492.230 8  22660127.770                  
  23292345.935    -7248962.320 6  -5648531.217 7  23292345.690                  
  21756034.932   -13760374.909 7 -10722363.901 9  21756034.402                  
  20398879.187   -23249872.828 8 -18116770.337 9  20398877.421                  
 95 10 15  0 18 30.0000000  0  7  6 14 29  1 20 22 25
  23991716.580    -4599121.087 6  -3583728.072 7  23991715.285                  
  21830763.828   -15077451.660 7 -11748657.554 9  21830763.368                  
  24235945.697    -3049748.554 6  -2376426.356 7  24235945.675                  
  22676592.479    -9421061.911 6  -7341074.839 8  22676591.875                  
  23310242.460    -7154916.260 6  -5575248.568 7  23310241.696                  
  21738442.745   -13852822.822 7 -10794401.217 9  21738442.152                  
  20402809.065   -23229221.034 8 -18100678.026 9  20402807.337                  
 95 10 15  0 19   .0000000  0  7  6 14 29  1 20 22 25
  23982681.721    -4646595.928 6  -3620721.437 7  23982681.383                  
  21825403.884   -15105617.809 7 -11770605.191 9  21825403.292                  
  24217337.087    -3147537.409 6  -2452625.412 7  24217337.172                  
  22693100.610    -9334311.495 6  -7273477.131 8  22693099.810                  
  23328196.708    -7060565.521 6  -5501728.485 7  23328196.229                  
  21720925.446   -13944876.950 7 -10866131.692 9  21720924.807                  
  20406798.361   -23208256.734 8 -18084342.206 9  20406796.696                  
 95 10 15  0 19 30.0000000  0  7  6 14 29  1 20 22 25
  23973734.273    -4693618.203 6  -3657362.153 7  23973733.920                  
  21820154.478   -15133204.143 7 -11792101.027 9  21820153.714                  
  24198738.037    -3245277.087 6  -2528786.149 7  24198737.972                  
  22709653.370    -9247326.859 6  -7205696.908 8  22709652.523                  
  23346209.380    -6965906.824 6  -5427968.433 7  23346209.055                  
  21703480.818   -14036548.821 7 -10937564.300 9  21703480.272                  
  20410847.644   -23186977.982 8 -18067761.358 9  20410845.856                  
 95 10 15  0 20   .0000000  0  7  6 14 29  1 20 22 25
  23964870.207    -4740200.861 6  -3693660.327 7  23964868.984                  
  21815017.164   -15160201.416 7 -11813137.854 9  21815016.307                  
  24180147.314    -3342974.960 6  -2604914.294 7  24180146.557                  
  22726256.111    -9160077.771 6  -7137710.623 8  22726255.902                  
  23364281.711    -6870935.393 6  -5353964.697 7  23364282.032                  
  21686107.493   -14127845.796 7 -11008704.781 9  21686106.881                  
  20414959.473   -23165369.976 8 -18050923.946 9  20414957.742                  
 95 10 15  0 20 30.0000000  0  7  6 14 29  1 20 22 25
  23956088.513    -4786346.864 6  -3729618.241 7  23956088.075                  
  21809990.797   -15186614.741 7 -11833719.658 9  21809990.079                  
  24161565.291    -3440622.101 6  -2681002.932 7  24161564.451                  
  22742910.597    -9072558.160 6  -7069513.542 8  22742910.424                  
  23382411.553    -6775662.067 6  -5279725.747 7  23382411.557                  
  21668805.125   -14218770.006 7 -11079554.801 9  21668804.402                  
  20419135.361   -23143424.326 8 -18033823.434 9  20419133.869                  
 95 10 15  0 21   .0000000  0  7  6 14 29  1 20 22 25
  23947390.251    -4832056.373 6  -3765236.026 7  23947389.648                  
  21805076.201   -15212439.962 7 -11853843.191 9  21805075.745                  
  24142995.003    -3538207.396 6  -2757043.370 7  24142994.722                  
  22759612.729    -8984788.100 6  -7001121.309 8  22759612.532                  
  23400597.283    -6680094.456 6  -5205257.463 7  23400597.286                  
  21651571.481   -14309334.047 7 -11150124.167 9  21651570.771                  
  20423373.244   -23121154.035 8 -18016469.958 9  20423371.715                  
 95 10 15  0 21 30.0000000  0  7  6 14 29  1 20 22 25
  23938774.043    -4877334.099 6  -3800517.367 7  23938773.755                  
  21800274.929   -15237671.271 7 -11873503.937 9  21800274.261                  
  24124437.801    -3635729.517 6  -2833034.572 7  24124436.514                  
  22776360.793    -8896774.930 6  -6932539.637 8  22776360.727                  
  23418837.022    -6584242.823 6  -5130567.875 7  23418837.162                  
  21634403.840   -14399550.289 7 -11220422.527 9  21634403.158                  
  20427673.044   -23098558.368 8 -17998862.937 9  20427671.481                  
 95 10 15  0 22   .0000000  0  7  6 14 29  1 20 22 25
  23930240.039    -4922183.145 6  -3835464.640 7  23930239.232                  
  21795584.705   -15262318.895 7 -11892709.869 9  21795583.862                  
  24105893.707    -3733179.056 6  -2908969.219 7  24105892.388                  
  22793153.705    -8808529.779 6  -6863777.207 8  22793153.118                  
  23437127.618    -6488125.358 6  -5055671.165 7  23437127.544                  
  21617304.049   -14489410.351 7 -11290443.345 9  21617303.479                  
  20432035.175   -23075634.780 8 -17981000.394 9  20432033.605                  
 95 10 15  0 22 30.0000000  0  7  6 14 29  1 20 22 25
  23921788.410    -4966595.759 6  -3870071.867 7  23921787.210                  
  21791005.323   -15286383.665 7 -11911461.617 9  21791004.732                  
  24087362.256    -3830559.921 6  -2984850.347 7  24087361.385                  
  22809985.384    -8720080.117 6  -6794855.406 8  22809984.377                  
  23455466.521    -6391755.503 6  -4980577.778 7  23455466.218                  
  21600273.084   -14578907.469 7 -11360181.348 9  21600272.683                  
  20436457.311   -23052397.702 8 -17962893.576 9  20436455.497                  
 95 10 15  0 23   .0000000  0  7  6 14 29  1 20 22 25
  23913418.849    -5010577.312 6  -3904343.176 7  23913418.215                  
  21786539.853   -15309849.569 7 -11929746.718 9  21786539.390                  
  24068844.945    -3927869.222 6  -3060675.717 7  24068843.925                  
  22826853.551    -8631435.822 6  -6725781.950 8  22826853.054                  
  23473854.318    -6295130.155 6  -4905285.326 7  23473853.822                  
  21583313.004   -14668032.834 7 -11429629.671 9  21583312.443                  
  20440937.863   -23028852.858 8 -17944546.936 9  20440935.994                  
 95 10 15  0 23 30.0000000  0  7  6 14 29  1 20 22 25
  23905130.512    -5054134.386 6  -3938283.714 7  23905129.451                  
  21782188.933   -15332714.298 7 -11947563.375 9  21782188.345                  
  24050338.909    -4025117.436 6  -3136453.497 7  24050338.166                  
  22843762.111    -8542579.954 6  -6656543.625 8  22843761.544                  
  23492288.198    -6198257.112 6  -4829799.853 7  23492287.651                  
  21566427.604   -14756767.632 7 -11498773.660 9  21566426.822                  
  20445479.025   -23004988.430 8 -17925951.272 9  20445477.233                  
 95 10 15  0 24   .0000000  0  7  6 14 29  1 20 22 25
  23896924.336    -5097256.963 6  -3971885.689 7  23896923.544                  
  21777952.154   -15354976.968 7 -11964910.897 9  21777951.535                  
  24031845.597    -4122301.510 6  -3212181.278 7  24031844.259                  
  22860711.786    -8453509.978 6  -6587138.460 8  22860711.243                  
  23510770.742    -6101133.593 6  -4754119.208 7  23510770.143                  
  21549621.074   -14845087.243 7 -11567594.121 9  21549620.260                  
  20450082.727   -22980796.053 8 -17907100.061 9  20450080.944                  
 95 10 15  0 24 30.0000000  0  7  6 14 29  1 20 22 25
  23888802.007    -5139937.616 6  -4005143.340 7  23888801.291                  
  21773833.829   -15376619.435 7 -11981775.146 9  21773833.300                  
  24013363.777    -4219422.801 6  -3287860.149 7  24013363.056                  
  22877701.792    -8364227.400 6  -6517567.636 8  22877701.398                  
  23529304.686    -6003734.987 6  -4678224.174 7  23529304.230                  
  21532893.642   -14932990.304 7 -11636089.993 9  21532892.940                  
  20454749.021   -22956274.623 8 -17887992.447 9  20454747.170                  
 95 10 15  0 25   .0000000  0  7  6 14 29  1 20 22 25
  23880764.069    -5182178.314 6  -4038058.145 7  23880763.539                  
  21769832.992   -15397644.059 7 -11998157.951 9  21769832.393                  
  23994895.141    -4316476.275 6  -3363486.188 7  23994894.384                  
  22894735.766    -8274713.863 6  -6447816.850 8  22894735.126                  
  23547893.083    -5906051.662 6  -4602107.286 7  23547892.637                  
  21516245.558   -15020476.366 7 -11704260.927 9  21516244.773                  
  20459480.153   -22931411.634 8 -17868618.681 9  20459478.313                  
 95 10 15  0 25 30.0000000  0  7  6 14 29  1 20 22 25
  23872810.944    -5223972.737 6  -4070625.199 7  23872810.334                  
  21765948.161   -15418059.655 7 -12014066.189 9  21765947.383                  
  23976436.602    -4413474.666 6  -3439069.299 7  23976436.124                  
  22911814.369    -8184964.000 6  -6377881.912 8  22911813.671                  
  23566535.682    -5808083.637 6  -4525768.531 7  23566535.100                  
  21499677.371   -15107543.074 7 -11772105.089 9  21499676.646                  
  20464277.100   -22906203.826 8 -17848976.225 9  20464275.231                  
 95 10 15  0 26   .0000000  0  7  6 14 29  1 20 22 25
  23864944.762    -5265311.269 6  -4102837.013 7  23864943.715                  
  21762179.986   -15437861.326 7 -12029496.044 9  21762179.337                  
  23957991.027    -4510408.648 6  -3514602.218 7  23957990.459                  
  22928935.670    -8094990.885 6  -6307773.006 8  22928935.126                  
  23585234.186    -5709822.030 6  -4449201.016 7  23585233.853                  
  21483186.853   -15194200.430 7 -11839630.274 9  21483186.167                  
  20469137.898   -22880660.575 8 -17829072.387 9  20469136.008                  
 95 10 15  0 26 30.0000000  0  7  6 14 29  1 20 22 25
  23857164.589    -5306195.758 6  -4134695.021 7  23857163.334                  
  21758529.174   -15457045.450 7 -12044444.697 9  21758528.595                  
  23939555.791    -4607286.638 6  -3590091.516 7  23939554.417                  
  22946100.085    -8004791.637 6  -6237487.893 7  22946099.491                  
  23603985.425    -5611282.826 6  -4372417.224 7  23603985.129                  
  21466771.397   -15280464.602 7 -11906849.083 9  21466770.577                  
  20474060.164   -22854793.526 8 -17808916.239 9  20474058.242                  
 95 10 15  0 27   .0000000  0  7  6 14 29  1 20 22 25
  23849473.284    -5346614.834 6  -4166190.362 7  23849471.985                  
  21754994.824   -15475617.677 7 -12058916.552 9  21754994.283                  
  23921130.325    -4704112.205 6  -3665539.977 7  23921129.397                  
  22963309.509    -7914356.022 6  -6167018.600 7  22963308.889                  
  23622783.428    -5512496.091 6  -4295440.517 7  23622783.756                  
  21450431.123   -15366332.540 7 -11973759.142 9  21450430.315                  
  20479042.717   -22828609.869 8 -17788513.386 9  20479040.840                  
 95 10 15  0 27 30.0000000  0  7  6 14 29  1 20 22 25
  23841870.760    -5386565.804 6  -4197320.936 7  23841869.745                  
  21751578.884   -15493570.241 7 -12072905.555 9  21751578.080                  
  23902715.745    -4800880.588 6  -3740943.858 7  23902715.058                  
  22980560.861    -7823698.662 6  -6096376.512 7  22980560.442                  
  23641627.010    -5413472.846 6  -4218279.566 7  23641627.594                  
  21434166.471   -15451804.815 7 -12040360.892 9  21434165.364                  
  20484085.255   -22802110.769 8 -17767864.730 9  20484083.474                  
 95 10 15  0 28   .0000000  0  7  6 14 29  1 20 22 25
  23834359.303    -5426036.413 6  -4228077.248 7  23834358.177                  
  21748283.651   -15510887.410 7 -12086399.438 9  21748282.737                  
  23884314.943    -4897577.017 6  -3816291.684 7  23884314.067                  
  22997853.162    -7732827.078 6  -6025567.505 7  22997852.735                  
  23660514.822    -5314216.248 6  -4140936.754 7  23660514.947                  
  21417976.999   -15536881.365 7 -12106654.281 9  21417975.893                  
  20489188.655   -22775292.596 8 -17746967.446 9  20489186.923                  
 95 10 15  0 28 30.0000000  0  7  6 14 29  1 20 22 25
  23826938.616    -5465031.848 6  -4258463.276 7  23826937.678                  
  21745109.862   -15527566.291 7 -12099395.955 9  21745108.921                  
  23865930.318    -4994188.559 6  -3891573.376 7  23865929.533                  
  23015185.882    -7641743.096 6  -5954592.983 7  23015185.449                  
  23679447.197    -5214729.982 6  -4063414.973 7  23679447.121                  
  21401862.898   -15621562.239 8 -12172639.349 9  21401861.895                  
  20494354.178   -22748147.678 8 -17725815.555 9  20494352.461                  
 95 10 15  0 29   .0000000  0  7  6 14 29  1 20 22 25
  23819607.008    -5503560.579 6  -4288485.643 7  23819605.857                  
  21742055.695   -15543615.431 7 -12111901.768 9  21742054.757                  
  23847568.613    -5090681.295 6  -3966762.476 7  23847567.963                  
  23032555.635    -7550462.755 6  -5883465.456 7  23032555.579                  
  23698424.987    -5115000.100 6  -3985703.366 7  23698424.957                  
  21385825.879   -15705836.081 8 -12238307.248 9  21385825.229                  
  20499584.983   -22720658.727 8 -17704395.586 9  20499583.278                  
 95 10 15  0 29 30.0000000  0  7  6 14 29  1 20 22 25
  23812364.047    -5541623.679 6  -4318145.181 7  23812362.311                  
  21739118.830   -15559048.630 7 -12123927.631 9  21739117.795                  
  23829231.999    -5187039.109 6  -4041846.463 7  23829231.242                  
  23049960.727    -7458999.959 6  -5812195.766 7  23049960.477                  
  23717451.235    -5015016.741 6  -3907794.238 7  23717450.935                  
  21369865.393   -15789708.178 7 -12303662.097 9  21369864.776                  
  20504882.443   -22692820.113 8 -17682703.153 9  20504880.742                  
 95 10 15  0 30   .0000000  0  7 14  6 29  1 20 22 25
  21736297.366   -15573874.951 7 -12135480.605 9  21736296.634                  
  23805210.497    -5579215.532 6  -4347437.528 7  23805209.250                  
  23810920.603    -5283266.532 6  -4116828.833 7  23810919.675                  
  23067400.859    -7367351.271 6  -5740781.218 7  23067400.624                  
  23736526.845    -4914776.200 6  -3829684.725 7  23736526.520                  
  21353984.135   -15873166.118 8 -12368694.232 9  21353983.236                  
  20510243.262   -22664649.132 8 -17660751.732 9  20510241.572                  
 95 10 15  0 30 30.0000000  0  7 14  6 29  1 20 22 25
  21733587.138   -15588116.955 7 -12146578.266 9  21733586.487                  
  23798144.431    -5616347.213 6  -4376371.290 7  23798143.071                  
  23792633.874    -5379365.360 6  -4191711.009 7  23792632.416                  
  23084878.269    -7275508.708 6  -5669215.599 7  23084877.642                  
  23755648.262    -4814292.553 6  -3751385.781 7  23755647.971                  
  21338183.436   -15956198.825 8 -12433395.022 9  21338182.452                  
  20515666.062   -22636151.817 8 -17638546.024 9  20515664.470                  
 95 10 15  0 31   .0000000  0  7 14  6 29  1 20 22 25
  21730985.316   -15601789.798 7 -12157232.423 9  21730984.785                  
  23791169.291    -5653001.215 6  -4404932.836 7  23791168.038                  
  23774365.602    -5475364.264 6  -4266515.321 7  23774364.300                  
  23102395.230    -7183457.410 6  -5597487.328 7  23102394.361                  
  23774813.981    -4713577.323 6  -3672906.388 7  23774813.412                  
  21322467.898   -16038783.440 7 -12497746.645 9  21322467.000                  
  20521148.949   -22607339.349 8 -17616094.745 9  20521147.379                  
 95 10 15  0 31 30.0000000  0  7 14  6 29  1 20 22 25
  21728494.747   -15614878.098 7 -12167431.089 9  21728494.180                  
  23784286.878    -5689169.556 6  -4433115.957 7  23784286.041                  
  23756109.967    -5571298.535 6  -4341269.280 7  23756108.655                  
  23119955.647    -7091175.442 6  -5525579.306 7  23119955.233                  
  23794020.619    -4612644.825 6  -3594257.684 7  23794019.968                  
  21306839.119   -16120913.221 8 -12561743.855 9  21306838.183                  
  20526685.651   -22578243.773 8 -17593422.862 9  20526683.992                  
 95 10 15  0 32   .0000000  0  7 14  6 29  1 20 22 25
  21726119.823   -15627359.529 7 -12177156.872 9  21726118.912                  
  23777494.049    -5724865.061 6  -4460930.594 7  23777493.628                  
  23737863.671    -5667182.229 6  -4415983.809 7  23737862.653                  
  23137562.693    -6998648.585 6  -5453480.472 7  23137562.633                  
  23813267.537    -4511499.191 6  -3515442.903 7  23813267.438                  
  21291298.769   -16202577.610 8 -12625378.422 9  21291298.089                  
  20532276.380   -22548864.787 8 -17570530.140 9  20532274.659                  
 95 10 15  0 32 30.0000000  0  7 14  6 29  1 20 22 25
  21723860.895   -15639229.361 7 -12186406.086 9  21723860.086                  
  23770792.913    -5760079.736 6  -4488370.572 7  23770792.437                  
  23719626.682    -5763019.596 6  -4490662.241 7  23719625.320                  
  23155215.605    -6905881.607 6  -5381194.530 7  23155215.716                  
  23832553.532    -4410150.900 6  -3436470.223 7  23832553.677                  
  21275845.377   -16283786.416 8 -12688657.990 9  21275844.582                  
  20537925.290   -22519179.714 8 -17547398.909 9  20537923.504                  
 95 10 15  0 33   .0000000  0  7 14  6 29  1 20 22 25
  21721721.202   -15650471.552 7 -12195166.229 9  21721720.778                  
  23764185.988    -5794799.284 6  -4515424.741 7  23764185.201                  
  23701398.236    -5858809.533 6  -4565303.713 7  23701397.185                  
  23172911.906    -6812887.000 6  -5308731.217 7  23172911.807                  
  23851880.190    -4308589.155 6  -3357331.206 7  23851879.720                  
  21260476.074   -16364552.357 8 -12751592.469 9  21260475.260                  
  20543632.900   -22489185.728 8 -17524026.963 9  20543631.114                  
 95 10 15  0 33 30.0000000  0  7 14 22  6 29  1 20 25
  21719705.714   -15661063.036 7 -12203419.325 9  21719705.335                  
  21245186.653   -16444898.318 8 -12814199.693 9  21245185.864                  
  23757671.548    -5829034.744 6  -4542101.719 7  23757670.578                  
  23683184.812    -5954522.484 6  -4639885.193 7  23683183.520                  
  23190647.607    -6719687.186 6  -5236107.991 7  23190647.109                  
  23871248.725    -4206805.120 6  -3278018.962 7  23871248.596                  
  20549402.455   -22458866.027 8 -17500401.215 9  20549400.711                  
 95 10 15  0 34   .0000000  0  7 14 22  6 29  1 20 25
  21717813.190   -15671009.856 7 -12211170.087 9  21717812.546                  
  21229976.068   -16524831.761 8 -12876485.478 9  21229974.831                  
  23751251.528    -5862772.400 6  -4568390.779 7  23751250.378                  
  23664989.524    -6050138.186 6  -4714390.885 7  23664988.393                  
  23208418.520    -6626300.611 6  -5163339.245 7  23208418.188                  
  23890661.312    -4104790.279 6  -3198526.909 7  23890661.198                  
  20555237.730   -22428202.023 8 -17476507.181 9  20555235.834                  
 95 10 15  0 34 30.0000000  0  7 14 22  6 29  1 20 25
  21716039.380   -15680330.845 7 -12218433.191 9  21716038.847                  
  21214843.949   -16604351.087 8 -12938448.579 9  21214842.897                  
  23744928.074    -5895999.866 6  -4594282.295 7  23744927.218                  
  23646816.038    -6145640.317 6  -4788808.089 7  23646814.886                  
  23226221.826    -6532742.999 6  -5090437.229 7  23226221.746                  
  23910116.870    -4002551.302 6  -3118860.184 7  23910116.589                  
  20561136.695   -22397202.501 8 -17452351.704 9  20561134.883                  
 95 10 15  0 35   .0000000  0  7 14 22  6 29  1 20 25
  21714386.758   -15689015.683 7 -12225200.594 9  21714385.986                  
  21199793.148   -16683443.784 8 -13000079.235 9  21199791.921                  
  23738698.277    -5928739.143 6  -4619793.399 7  23738697.032                  
  23628665.859    -6241019.440 6  -4863129.422 7  23628664.984                  
  23244059.384    -6439003.830 6  -5017393.736 7  23244059.623                  
  23929616.760    -3900081.684 6  -3039013.738 7  23929616.509                  
  20567096.214   -22365884.343 8 -17427947.939 9  20567094.521                  
 95 10 15  0 35 30.0000000  0  7 14 22  6 29  1 20 25
  21712856.490   -15697058.407 7 -12231467.649 9  21712855.603                  
  21184824.168   -16762105.728 8 -13061374.247 9  21184822.972                  
  23732559.367    -5960997.577 6  -4644929.821 7  23732558.449                  
  23610539.904    -6336271.953 6  -4937352.105 7  23610538.755                  
  23261934.276    -6345070.601 6  -4944199.025 7  23261934.417                  
  23949158.764    -3797385.675 6  -2958990.949 7  23949158.599                  
  20573114.852   -22334256.514 8 -17403302.871 9  20573113.085                  
 95 10 15  0 36   .0000000  0  7 14 22  6 29  1 20 25
  21711445.036   -15704475.443 7 -12237247.150 9  21711444.190                  
  21169940.477   -16840319.529 8 -13122320.060 9  21169939.589                  
  23726512.382    -5992775.285 6  -4669691.651 7  23726511.483                  
  23592435.033    -6431415.426 6  -5011489.820 7  23592433.712                  
  23279847.713    -6250935.138 6  -4870846.727 7  23279847.848                  
  23968741.612    -3694477.564 6  -2878802.873 7  23968741.218                  
  20579189.812   -22302333.134 8 -17378427.506 9  20579187.841                  
 95 10 15  0 36 30.0000000  0  7 14 22  6 29  1 20 25
  21710153.039   -15711264.877 7 -12242537.608 9  21710152.272                  
  21155142.253   -16918085.396 8 -13182916.821 9  21155141.266                  
  23720555.949    -6024076.148 6  -4694081.916 7  23720555.450                  
  23574349.771    -6526453.368 6  -5085545.315 7  23574348.482                  
  23297799.217    -6156598.480 6  -4797337.660 7  23297799.403                  
  23988362.092    -3591371.714 6  -2798460.666 6  23988361.358                  
  20585321.175   -22270112.916 8 -17353320.839 9  20585319.193                  
 95 10 15  0 37   .0000000  0  7 14 22  6 29  1 20 25
  21708985.728   -15717398.720 7 -12247317.226 9  21708984.734                  
  21140428.483   -16995405.616 8 -13243166.329 9  21140427.645                  
  23714691.495    -6054892.145 6  -4718094.352 7  23714691.050                  
  23556282.997    -6621393.935 6  -5159524.929 7  23556281.864                  
  23315790.384    -6062053.999 6  -4723666.652 7  23315790.657                  
  24008021.204    -3488062.922 6  -2717960.266 6  24008020.358                  
  20591508.540   -22237598.101 8 -17327984.616 9  20591506.561                  
 95 10 15  0 37 30.0000000  0  7 14 22  6 29  1 20 25
  21707939.484   -15722896.082 7 -12251600.889 9  21707938.652                  
  21125800.908   -17072273.653 8 -13303063.486 9  21125800.070                  
  23708923.612    -6085205.279 6  -4741714.947 7  23708922.764                  
  23538235.795    -6716232.900 6  -5233425.378 7  23538234.702                  
  23333818.622    -5967314.560 6  -4649843.721 7  23333819.194                  
  24027715.348    -3384567.288 6  -2637314.318 7  24027715.764                  
  20597752.449   -22204786.312 8 -17302416.983 9  20597750.523                  
 95 10 15  0 38   .0000000  0  7 14 22  6 29  1 20 25
  21707009.401   -15727784.680 7 -12255410.179 9  21707008.523                  
  21111261.403   -17148679.842 8 -13362600.758 9  21111260.611                  
  23703251.968    -6115009.927 6  -4764939.335 7  23703251.058                  
  23520208.051    -6810968.522 6  -5307245.296 7  23520206.949                  
  23351882.493    -5872389.936 6  -4575876.510 7  23351882.973                  
  24047441.961    -3280901.518 5  -2556535.832 7  24047442.765                  
  20604053.514   -22171673.577 8 -17276614.848 9  20604051.709                  
 95 10 15  0 38 30.0000000  0  7 14 22  6 29  1 20 25
  21706196.160   -15732058.415 7 -12258740.357 9  21706195.457                  
  21096808.265   -17224631.768 8 -13421784.058 9  21096807.522                  
  23697677.818    -6144302.471 6  -4787764.682 7  23697676.720                  
  23502202.650    -6905587.182 6  -5380974.085 7  23502201.125                  
  23369983.059    -5777272.389 6  -4501758.948 7  23369982.932                  
  24067202.944    -3177058.072 5  -2475618.876 7  24067203.636                  
  20610411.300   -22138262.790 8 -17250580.464 9  20610409.451                  
 95 10 15  0 39   .0000000  0  7 14 22  6 29  1 20 25
  21705497.747   -15735728.254 7 -12261599.961 9  21705497.006                  
  21082442.442   -17300125.172 8 -13480610.069 9  21082441.376                  
  23692198.245    -6173095.695 6  -4810200.944 7  23692197.316                  
  23484219.743    -7000089.212 6  -5454612.007 7  23484217.715                  
  23388122.104    -5681953.318 6  -4427484.366 7  23388121.640                  
  24086998.571    -3073033.235 6  -2394560.546 6  24086998.854                  
  20616824.226   -22104562.306 8 -17224320.344 9  20616822.443                  
 95 10 15  0 39 30.0000000  0  7 14 22  6 29  1 20 25
  21704908.149   -15738826.480 7 -12264014.156 9  21704907.370                  
  21068162.938   -17375163.995 8 -13539081.864 9  21068161.897                  
  23686814.170    -6201389.213 6  -4832247.810 7  23686813.036                  
  23466260.991    -7094464.156 6  -5528150.910 7  23466258.840                  
  23406299.650    -5586430.170 6  -4353050.761 7  23406299.109                  
  24106826.175    -2968837.032 6  -2313368.675 6  24106826.444                  
  20623295.064   -22070557.665 8 -17197823.220 9  20623293.327                  
 95 10 15  0 40   .0000000  0  7 14 22  6 29  1 20 25
  21704429.741   -15741340.950 7 -12265973.475 9  21704428.733                  
  21053966.662   -17449766.424 8 -13597213.612 9  21053965.603                  
  23681525.423    -6229182.641 6  -4853905.007 7  23681524.493                  
  23448325.818    -7188712.848 6  -5601591.421 7  23448324.217                  
  23424515.319    -5490706.391 6  -4278460.824 7  23424514.789                  
  24126688.311    -2864459.006 5  -2232035.115 6  24126688.721                  
  20629823.584   -22036250.225 8 -17171090.151 9  20629821.745                  
 95 10 15  0 40 30.0000000  0  7 14 22  6 29  1 20 25
  21704066.852   -15743246.486 7 -12267458.302 9  21704066.087                  
  21039854.371   -17523926.894 8 -13655000.977 9  21039853.362                  
  23676329.952    -6256482.329 6  -4875177.478 7  23676329.754                  
  23430414.248    -7282839.227 6  -5674936.630 7  23430412.819                  
  23442769.290    -5394779.260 6  -4203712.430 7  23442768.749                  
  24146589.158    -2759880.178 6  -2150545.085 6  24146589.133                  
  20636409.989   -22001638.680 8 -17144120.114 9  20636408.188                  
 95 10 15  0 41   .0000000  0  7 14 22  6 29  1 20 25
  21703818.537   -15744550.841 7 -12268474.673 9  21703817.822                  
  21025829.388   -17597628.799 8 -13712431.020 9  21025828.203                  
  23671230.875    -6283278.301 6  -4896057.440 7  23671230.466                  
  23412526.867    -7376836.697 6  -5748181.375 7  23412525.943                  
  23461059.151    -5298665.979 6  -4128818.987 7  23461058.474                  
  24166527.196    -2655105.653 6  -2068902.548 7  24166527.610                  
  20643055.307   -21966716.687 8 -17116908.171 9  20643053.555                  
 95 10 15  0 41 30.0000000  0  7 14 22  6 29  1 20 25
  21703686.311   -15745246.734 7 -12269016.926 9  21703685.458                  
  21011892.489   -17670867.193 8 -13769499.886 9  21011891.341                  
  23666230.331    -6309556.317 6  -4916533.799 7  23666229.906                  
  23394665.827    -7470697.723 6  -5821319.798 7  23394664.549                  
  23479381.248    -5202381.779 6  -4053792.356 7  23479380.848                  
  24186501.178    -2550141.576 5  -1987112.299 7  24186501.594                  
  20649759.946   -21931483.539 8 -17089453.770 9  20649758.198                  
 95 10 15  0 42   .0000000  0  7 14 22  6 29  1 20 25
  21703674.141   -15745311.070 7 -12269067.047 9  21703673.338                  
  20998047.488   -17743624.021 8 -13826193.501 9  20998046.418                  
  23661326.384    -6335327.704 6  -4936615.396 7  23661325.779                  
  23376829.819    -7564426.190 6  -5894354.932 8  23376828.851                  
  23497733.437    -5105939.936 6  -3978642.889 7  23497732.889                  
  24206512.057    -2444983.909 5  -1905171.194 6  24206512.375                  
  20656522.117   -21895948.412 8 -17061764.061 9  20656520.301                  
 95 10 15  0 42 30.0000000  0  7 14  6 29  1 20 22 25
  21703783.692   -15744736.484 7 -12268619.309 9  21703782.736                  
  23656520.706    -6360579.603 6  -4956292.186 7  23656520.482                  
  23359020.757    -7658015.086 6  -5967281.315 8  23359019.614                  
  23516118.288    -5009328.737 6  -3903361.445 7  23516118.001                  
  24226556.955    -2339646.710 5  -1823090.203 6  24226557.255                  
  20984295.805   -17815888.880 8 -13882503.760 9  20984294.773                  
  20663343.450   -21860102.364 8 -17033832.074 9  20663341.658                  
 95 10 15  0 43   .0000000  0  7 14  6 29  1 20 22 25
  21704014.246   -15743523.503 7 -12267674.121 9  21704013.462                  
  23651817.421    -6385296.545 6  -4975552.132 7  23651817.122                  
  23341238.811    -7751460.450 6  -6040095.863 8  23341237.621                  
  23534533.901    -4912553.320 6  -3827952.036 7  23534533.436                  
  24246631.861    -2234154.190 5  -1740888.204 6  24246631.381                  
  20970634.523   -17887678.893 8 -13938444.001 9  20970633.459                  
  20670224.310   -21823943.275 8 -17005656.160 9  20670222.488                  
 95 10 15  0 43 30.0000000  0  7 14  6 29  1 20 22 25
  21704371.648   -15741644.637 7 -12266210.063 9  21704370.933                  
  23647214.674    -6409486.366 6  -4994401.328 7  23647213.510                  
  23323481.022    -7844778.054 6  -6112810.853 7  23323479.483                  
  23552983.204    -4815600.163 6  -3752404.129 7  23552983.232                  
  24266735.519    -2128507.286 6  -1658565.906 6  24266735.145                  
  20957061.647   -17959004.872 8 -13994022.672 9  20957060.657                  
  20677165.921   -21787464.813 8 -16977231.383 9  20677164.160                  
 95 10 15  0 44   .0000000  0  7 14  6 29  1 20 22 25
  21704856.524   -15739095.479 7 -12264223.700 9  21704855.863                  
  23642711.987    -6433149.801 6  -5012840.360 7  23642710.851                  
  23305746.688    -7937971.932 6  -6185429.429 7  23305745.295                  
  23571470.811    -4718448.146 6  -3676701.273 7  23571470.328                  
  24286870.795    -2022695.413 5  -1576115.077 7  24286871.103                  
  20943576.070   -18029871.242 8 -14049243.199 9  20943575.188                  
  20684168.095   -21750667.487 8 -16948558.142 9  20684166.350                  
 95 10 15  0 44 30.0000000  0  7 14  6 29  1 20 22 25
  21705465.644   -15735893.945 7 -12261728.994 9  21705465.191                  
  23638309.375    -6456284.773 6  -5030867.613 7  23638308.012                  
  23288034.299    -8031050.586 6  -6257958.227 7  23288032.819                  
  23589997.033    -4621092.561 6  -3600839.786 7  23589996.563                  
  24307037.643    -1916718.966 5  -1493536.013 7  24307037.609                  
  20930176.502   -18100286.820 8 -14104112.466 9  20930175.578                  
  20691228.774   -21713562.923 8 -16919645.493 9  20691227.059                  
 95 10 15  0 45   .0000000  0  7 14  6 29  1 20 22 25
  21706198.094   -15732046.707 7 -12258731.139 9  21706197.252                  
  23634002.527    -6478918.422 6  -5048504.215 7  23634001.112                  
  23270343.413    -8124015.711 6  -6330398.551 7  23270342.056                  
  23608560.093    -4523544.359 6  -3524828.213 7  23608559.663                  
  24327235.479    -1810578.562 5  -1410829.192 6  24327235.346                  
  20916865.579   -18170236.440 8 -14158618.645 9  20916864.487                  
  20698347.119   -21676155.668 8 -16890496.983 9  20698345.443                  
 95 10 15  0 45 30.0000000  0  7 14  6 29  1 20 22 25
  21707050.025   -15727571.003 7 -12255243.572 9  21707049.184                  
  23629789.445    -6501059.728 6  -5065757.174 7  23629787.804                  
  23252677.185    -8216851.774 6  -6402738.306 7  23252675.723                  
  23627160.070    -4425799.714 6  -3448663.577 7  23627159.698                  
  24347466.790    -1704263.504 6  -1327986.267 6  24347466.067                  
  20903647.837   -18239695.768 8 -14212742.775 9  20903646.856                  
  20705522.281   -21638450.353 8 -16861116.219 9  20705520.576                  
 95 10 15  0 46   .0000000  0  7 14  6 29  1 20 22 25
  21708014.700   -15722501.675 7 -12251293.447 9  21708013.918                  
  23625672.079    -6522694.969 6  -5082615.793 7  23625670.961                  
  23235038.620    -8309544.769 6  -6474966.588 7  23235037.118                  
  23645796.087    -4327866.922 6  -3372352.329 7  23645795.797                  
  24367728.352    -1597784.502 5  -1245015.542 6  24367727.920                  
  20890523.727   -18308662.872 8 -14266483.358 9  20890522.911                  
  20712751.683   -21600460.703 8 -16831513.896 9  20712749.850                  
 95 10 15  0 46 30.0000000  0  7 14  6 29  1 20 22 25
  21709091.952   -15716839.352 7 -12246881.242 9  21709091.405                  
  23621651.957    -6543817.927 6  -5099075.233 7  23621651.205                  
  23217429.119    -8402082.882 6  -6547074.193 7  23217427.459                  
  23664464.409    -4229762.364 6  -3295907.249 7  23664464.234                  
  24388018.466    -1491159.893 5  -1161931.365 6  24388018.045                  
  20877495.681   -18377125.543 8 -14319830.882 9  20877494.658                  
  20720034.524   -21562188.976 8 -16801691.771 9  20720032.623                  
 95 10 15  0 47   .0000000  0  7 14  6 29  1 20 22 25
  21710283.523   -15710576.842 7 -12242001.359 9  21710283.208                  
  23617732.683    -6564411.437 6  -5115122.094 7  23617731.653                  
  23199851.899    -8494451.438 6  -6619049.661 7  23199850.178                  
  23683167.715    -4131477.695 6  -3219321.802 7  23683167.349                  
  24408337.031    -1384388.538 5  -1078732.907 6  24408336.279                  
  20864562.482   -18445089.781 8 -14372790.022 9  20864561.651                  
  20727373.784   -21523620.045 8 -16771638.060 9  20727371.888                  
 95 10 15  0 47 30.0000000  0  7 14  6 29  1 20 22 25
